Name,Latitude,Longitude,Players
Cerdanyola Valles F.C.,41.492119937849964,2.1276293504646615,858
Mercantil, C.E;41.51941526612023,2.1302043819897647,592
Sant Cugat Futbol Club,41.47801146117327,2.0797355546353895,620
Sabadell F.C., C.E.,41.556900125077405,2.09268854118455,652
Can Rull Romulo Tronchoni,41.555408000442,2.082725929920137,498
Unió F. Base Jabac I Terrassa,41.54758890380445,2.02214173663857,546
Fundació Terrassa Fc 1906,41.58287201120283,2.016539716479542,494
Escola F. Barbera Andalucia,41.51882021606247,2.129581440355875,576
